[{"Country Code":"ABW","country_name":"Aruba","region":"Latin America & Caribbean ","income_level":"High income","latitude":"12.5167","longitude":"-70.0167","2018_gdp":0.0,"2018_pop":105845.0},{"Country Code":"AFG","country_name":"Afghanistan","region":"South Asia","income_level":"Low income","latitude":"34.5228","longitude":"69.1761","2018_gdp":19362969582.0,"2018_pop":37172386.0},{"Country Code":"AGO","country_name":"Angola","region":"Sub-Saharan Africa ","income_level":"Lower middle income","latitude":"-8.81155","longitude":"13.242","2018_gdp":106000000000.0,"2018_pop":30809762.0},{"Country Code":"ALB","country_name":"Albania","region":"Europe & Central Asia","income_level":"Upper middle income","latitude":"41.3317","longitude":"19.8172","2018_gdp":15058879129.0,"2018_pop":2866376.0},{"Country Code":"AND","country_name":"Andorra","region":"Europe & Central Asia","income_level":"High income","latitude":"42.5075","longitude":"1.5218","2018_gdp":3236543909.0,"2018_pop":77006.0},{"Country Code":"ARB","country_name":"Arab World","region":"Aggregates","income_level":"Aggregates","latitude":0,"longitude":0,"2018_gdp":2780000000000.0,"2018_pop":419790588.0},{"Country Code":"ARE","country_name":"United Arab Emirates","region":"Middle East & North Africa","income_level":"High income","latitude":"24.4764","longitude":"54.3705","2018_gdp":414000000000.0,"2018_pop":9630959.0},{"Country Code":"ARG","country_name":"Argentina","region":"Latin America & Caribbean ","income_level":"Upper middle income","latitude":"-34.6118","longitude":"-58.4173","2018_gdp":518000000000.0,"2018_pop":44494502.0},{"Country Code":"ARM","country_name":"Armenia","region":"Europe & Central Asia","income_level":"Upper middle income","latitude":"40.1596","longitude":"44.509","2018_gdp":12433089919.0,"2018_pop":2951776.0},{"Country Code":"ASM","country_name":"American Samoa","region":"East Asia & Pacific","income_level":"Upper middle income","latitude":"-14.2846","longitude":"-170.691","2018_gdp":0.0,"2018_pop":55465.0},{"Country Code":"ATG","country_name":"Antigua and Barbuda","region":"Latin America & Caribbean ","income_level":"High income","latitude":"17.1175","longitude":"-61.8456","2018_gdp":1623804016.0,"2018_pop":96286.0},{"Country Code":"AUS","country_name":"Australia","region":"East Asia & Pacific","income_level":"High income","latitude":"-35.282","longitude":"149.129","2018_gdp":1430000000000.0,"2018_pop":24992369.0},{"Country Code":"AUT","country_name":"Austria","region":"Europe & Central Asia","income_level":"High income","latitude":"48.2201","longitude":"16.3798","2018_gdp":456000000000.0,"2018_pop":8847037.0},{"Country Code":"AZE","country_name":"Azerbaijan","region":"Europe & Central Asia","income_level":"Upper middle income","latitude":"40.3834","longitude":"49.8932","2018_gdp":46939529412.0,"2018_pop":9942334.0},{"Country Code":"BDI","country_name":"Burundi","region":"Sub-Saharan Africa ","income_level":"Low income","latitude":"-3.3784","longitude":"29.3639","2018_gdp":3078029929.0,"2018_pop":11175378.0},{"Country Code":"BEL","country_name":"Belgium","region":"Europe & Central Asia","income_level":"High income","latitude":"50.8371","longitude":"4.36761","2018_gdp":532000000000.0,"2018_pop":11422068.0},{"Country Code":"BEN","country_name":"Benin","region":"Sub-Saharan Africa ","income_level":"Low income","latitude":"6.4779","longitude":"2.6323","2018_gdp":10358985583.0,"2018_pop":11485048.0},{"Country Code":"BFA","country_name":"Burkina Faso","region":"Sub-Saharan Africa ","income_level":"Low income","latitude":"12.3605","longitude":"-1.53395","2018_gdp":14441763759.0,"2018_pop":19751535.0},{"Country Code":"BGD","country_name":"Bangladesh","region":"South Asia","income_level":"Lower middle income","latitude":"23.7055","longitude":"90.4113","2018_gdp":274000000000.0,"2018_pop":161356039.0},{"Country Code":"BGR","country_name":"Bulgaria","region":"Europe & Central Asia","income_level":"Upper middle income","latitude":"42.7105","longitude":"23.3238","2018_gdp":65132951116.0,"2018_pop":7024216.0},{"Country Code":"BHR","country_name":"Bahrain","region":"Middle East & North Africa","income_level":"High income","latitude":"26.1921","longitude":"50.5354","2018_gdp":37746196809.0,"2018_pop":1569439.0},{"Country Code":"BHS","country_name":"Bahamas, The","region":"Latin America & Caribbean ","income_level":"High income","latitude":"25.0661","longitude":"-77.339","2018_gdp":0.0,"2018_pop":385640.0},{"Country Code":"BIH","country_name":"Bosnia and Herzegovina","region":"Europe & Central Asia","income_level":"Upper middle income","latitude":"43.8607","longitude":"18.4214","2018_gdp":19781776101.0,"2018_pop":3323929.0},{"Country Code":"BLR","country_name":"Belarus","region":"Europe & Central Asia","income_level":"Upper middle income","latitude":"53.9678","longitude":"27.5766","2018_gdp":59662495092.0,"2018_pop":9485386.0},{"Country Code":"BLZ","country_name":"Belize","region":"Latin America & Caribbean ","income_level":"Upper middle income","latitude":"17.2534","longitude":"-88.7713","2018_gdp":1925000000.0,"2018_pop":383071.0},{"Country Code":"BMU","country_name":"Bermuda","region":"North America","income_level":"High income","latitude":"32.3293","longitude":"-64.706","2018_gdp":0.0,"2018_pop":63968.0},{"Country Code":"BOL","country_name":"Bolivia","region":"Latin America & Caribbean ","income_level":"Lower middle income","latitude":"-13.9908","longitude":"-66.1936","2018_gdp":40287647757.0,"2018_pop":11353142.0},{"Country Code":"BRA","country_name":"Brazil","region":"Latin America & Caribbean ","income_level":"Upper middle income","latitude":"-15.7801","longitude":"-47.9292","2018_gdp":1870000000000.0,"2018_pop":209469333.0},{"Country Code":"BRB","country_name":"Barbados","region":"Latin America & Caribbean ","income_level":"High income","latitude":"13.0935","longitude":"-59.6105","2018_gdp":0.0,"2018_pop":286641.0},{"Country Code":"BRN","country_name":"Brunei Darussalam","region":"East Asia & Pacific","income_level":"High income","latitude":"4.94199","longitude":"114.946","2018_gdp":13567099498.0,"2018_pop":428962.0},{"Country Code":"BTN","country_name":"Bhutan","region":"South Asia","income_level":"Lower middle income","latitude":"27.5768","longitude":"89.6177","2018_gdp":2534965163.0,"2018_pop":754394.0},{"Country Code":"BWA","country_name":"Botswana","region":"Sub-Saharan Africa ","income_level":"Upper middle income","latitude":"-24.6544","longitude":"25.9201","2018_gdp":18616018903.0,"2018_pop":2254126.0},{"Country Code":"CAF","country_name":"Central African Republic","region":"Sub-Saharan Africa ","income_level":"Low income","latitude":"5.63056","longitude":"21.6407","2018_gdp":2379716827.0,"2018_pop":4666377.0},{"Country Code":"CAN","country_name":"Canada","region":"North America","income_level":"High income","latitude":"45.4215","longitude":"-75.6919","2018_gdp":1710000000000.0,"2018_pop":37058856.0},{"Country Code":"CEB","country_name":"Central Europe and the Baltics","region":"Aggregates","income_level":"Aggregates","latitude":0,"longitude":0,"2018_gdp":1630000000000.0,"2018_pop":102511922.0},{"Country Code":"CHE","country_name":"Switzerland","region":"Europe & Central Asia","income_level":"High income","latitude":"46.948","longitude":"7.44821","2018_gdp":706000000000.0,"2018_pop":8516543.0},{"Country Code":"CHI","country_name":"Channel Islands","region":"Europe & Central Asia","income_level":"High income","latitude":0,"longitude":0,"2018_gdp":0.0,"2018_pop":170499.0},{"Country Code":"CHL","country_name":"Chile","region":"Latin America & Caribbean ","income_level":"High income","latitude":"-33.475","longitude":"-70.6475","2018_gdp":298000000000.0,"2018_pop":18729160.0},{"Country Code":"CHN","country_name":"China","region":"East Asia & Pacific","income_level":"Upper middle income","latitude":"40.0495","longitude":"116.286","2018_gdp":13600000000000.0,"2018_pop":1392730000.0},{"Country Code":"CIV","country_name":"Cote d'Ivoire","region":"Sub-Saharan Africa ","income_level":"Lower middle income","latitude":"5.332","longitude":"-4.0305","2018_gdp":43007045466.0,"2018_pop":25069229.0},{"Country Code":"CMR","country_name":"Cameroon","region":"Sub-Saharan Africa ","income_level":"Lower middle income","latitude":"3.8721","longitude":"11.5174","2018_gdp":38502059858.0,"2018_pop":25216237.0},{"Country Code":"COD","country_name":"Congo, Dem. Rep.","region":"Sub-Saharan Africa ","income_level":"Low income","latitude":"-4.325","longitude":"15.3222","2018_gdp":47227535291.0,"2018_pop":84068091.0},{"Country Code":"COG","country_name":"Congo, Rep.","region":"Sub-Saharan Africa ","income_level":"Lower middle income","latitude":"-4.2767","longitude":"15.2662","2018_gdp":11263682694.0,"2018_pop":5244363.0},{"Country Code":"COL","country_name":"Colombia","region":"Latin America & Caribbean ","income_level":"Upper middle income","latitude":"4.60987","longitude":"-74.082","2018_gdp":330000000000.0,"2018_pop":49648685.0},{"Country Code":"COM","country_name":"Comoros","region":"Sub-Saharan Africa ","income_level":"Lower middle income","latitude":"-11.6986","longitude":"43.2418","2018_gdp":1203080508.0,"2018_pop":832322.0},{"Country Code":"CPV","country_name":"Cabo Verde","region":"Sub-Saharan Africa ","income_level":"Lower middle income","latitude":"14.9218","longitude":"-23.5087","2018_gdp":1986928612.0,"2018_pop":543767.0},{"Country Code":"CRI","country_name":"Costa Rica","region":"Latin America & Caribbean ","income_level":"Upper middle income","latitude":"9.63701","longitude":"-84.0089","2018_gdp":60126014829.0,"2018_pop":4999441.0},{"Country Code":"CSS","country_name":"Caribbean small states","region":"Aggregates","income_level":"Aggregates","latitude":0,"longitude":0,"2018_gdp":72930271173.0,"2018_pop":7358965.0},{"Country Code":"CUB","country_name":"Cuba","region":"Latin America & Caribbean ","income_level":"Upper middle income","latitude":"23.1333","longitude":"-82.3667","2018_gdp":0.0,"2018_pop":11338138.0},{"Country Code":"CUW","country_name":"Curacao","region":"Latin America & Caribbean ","income_level":"High income","latitude":0,"longitude":0,"2018_gdp":0.0,"2018_pop":159849.0},{"Country Code":"CYM","country_name":"Cayman Islands","region":"Latin America & Caribbean ","income_level":"High income","latitude":"19.3022","longitude":"-81.3857","2018_gdp":0.0,"2018_pop":64174.0},{"Country Code":"CYP","country_name":"Cyprus","region":"Europe & Central Asia","income_level":"High income","latitude":"35.1676","longitude":"33.3736","2018_gdp":24469841832.0,"2018_pop":1189265.0},{"Country Code":"CZE","country_name":"Czech Republic","region":"Europe & Central Asia","income_level":"High income","latitude":"50.0878","longitude":"14.4205","2018_gdp":244000000000.0,"2018_pop":10625695.0},{"Country Code":"DEU","country_name":"Germany","region":"Europe & Central Asia","income_level":"High income","latitude":"52.5235","longitude":"13.4115","2018_gdp":4000000000000.0,"2018_pop":82927922.0},{"Country Code":"DJI","country_name":"Djibouti","region":"Middle East & North Africa","income_level":"Lower middle income","latitude":"11.5806","longitude":"43.1425","2018_gdp":1965982322.0,"2018_pop":958920.0},{"Country Code":"DMA","country_name":"Dominica","region":"Latin America & Caribbean ","income_level":"Upper middle income","latitude":"15.2976","longitude":"-61.39","2018_gdp":503646211.1000000238,"2018_pop":71625.0},{"Country Code":"DNK","country_name":"Denmark","region":"Europe & Central Asia","income_level":"High income","latitude":"55.6763","longitude":"12.5681","2018_gdp":351000000000.0,"2018_pop":5797446.0},{"Country Code":"DOM","country_name":"Dominican Republic","region":"Latin America & Caribbean ","income_level":"Upper middle income","latitude":"18.479","longitude":"-69.8908","2018_gdp":81298585403.0,"2018_pop":10627165.0},{"Country Code":"DZA","country_name":"Algeria","region":"Middle East & North Africa","income_level":"Upper middle income","latitude":"36.7397","longitude":"3.05097","2018_gdp":181000000000.0,"2018_pop":42228429.0},{"Country Code":"EAP","country_name":"East Asia & Pacific (excluding high income)","region":"Aggregates","income_level":"Aggregates","latitude":0,"longitude":0,"2018_gdp":16300000000000.0,"2018_pop":2081651801.0},{"Country Code":"EAR","country_name":"Early-demographic dividend","region":"Aggregates","income_level":"Aggregates","latitude":0,"longitude":0,"2018_gdp":11600000000000.0,"2018_pop":3249140605.0},{"Country Code":"EAS","country_name":"East Asia & Pacific","region":"Aggregates","income_level":"Aggregates","latitude":0,"longitude":0,"2018_gdp":25900000000000.0,"2018_pop":2328220870.0},{"Country Code":"ECA","country_name":"Europe & Central Asia (excluding high income)","region":"Aggregates","income_level":"Aggregates","latitude":0,"longitude":0,"2018_gdp":3390000000000.0,"2018_pop":417797257.0},{"Country Code":"ECS","country_name":"Europe & Central Asia","region":"Aggregates","income_level":"Aggregates","latitude":0,"longitude":0,"2018_gdp":23000000000000.0,"2018_pop":918793590.0},{"Country Code":"ECU","country_name":"Ecuador","region":"Latin America & Caribbean ","income_level":"Upper middle income","latitude":"-0.229498","longitude":"-78.5243","2018_gdp":108000000000.0,"2018_pop":17084357.0},{"Country Code":"EGY","country_name":"Egypt, Arab Rep.","region":"Middle East & North Africa","income_level":"Lower middle income","latitude":"30.0982","longitude":"31.2461","2018_gdp":251000000000.0,"2018_pop":98423595.0},{"Country Code":"EMU","country_name":"Euro area","region":"Aggregates","income_level":"Aggregates","latitude":0,"longitude":0,"2018_gdp":13700000000000.0,"2018_pop":341783171.0},{"Country Code":"ERI","country_name":"Eritrea","region":"Sub-Saharan Africa ","income_level":"Low income","latitude":"15.3315","longitude":"38.9183","2018_gdp":0.0,"2018_pop":0.0},{"Country Code":"ESP","country_name":"Spain","region":"Europe & Central Asia","income_level":"High income","latitude":"40.4167","longitude":"-3.70327","2018_gdp":1430000000000.0,"2018_pop":46723749.0},{"Country Code":"EST","country_name":"Estonia","region":"Europe & Central Asia","income_level":"High income","latitude":"59.4392","longitude":"24.7586","2018_gdp":30284890757.0,"2018_pop":1320884.0},{"Country Code":"ETH","country_name":"Ethiopia","region":"Sub-Saharan Africa ","income_level":"Low income","latitude":"9.02274","longitude":"38.7468","2018_gdp":84355462494.0,"2018_pop":109224559.0},{"Country Code":"EUU","country_name":"European Union","region":"Aggregates","income_level":"Aggregates","latitude":0,"longitude":0,"2018_gdp":18700000000000.0,"2018_pop":513213363.0},{"Country Code":"FCS","country_name":"Fragile and conflict affected situations","region":"Aggregates","income_level":"Aggregates","latitude":0,"longitude":0,"2018_gdp":832000000000.0,"2018_pop":515215936.0},{"Country Code":"FIN","country_name":"Finland","region":"Europe & Central Asia","income_level":"High income","latitude":"60.1608","longitude":"24.9525","2018_gdp":276000000000.0,"2018_pop":5518050.0},{"Country Code":"FJI","country_name":"Fiji","region":"East Asia & Pacific","income_level":"Upper middle income","latitude":"-18.1149","longitude":"178.399","2018_gdp":5479504926.0,"2018_pop":883483.0},{"Country Code":"FRA","country_name":"France","region":"Europe & Central Asia","income_level":"High income","latitude":"48.8566","longitude":"2.35097","2018_gdp":2780000000000.0,"2018_pop":66987244.0},{"Country Code":"FRO","country_name":"Faroe Islands","region":"Europe & Central Asia","income_level":"High income","latitude":"61.8926","longitude":"-6.91181","2018_gdp":0.0,"2018_pop":48497.0},{"Country Code":"FSM","country_name":"Micronesia, Fed. Sts.","region":"East Asia & Pacific","income_level":"Lower middle income","latitude":"6.91771","longitude":"158.185","2018_gdp":344501760.0,"2018_pop":112640.0},{"Country Code":"GAB","country_name":"Gabon","region":"Sub-Saharan Africa ","income_level":"Upper middle income","latitude":"0.38832","longitude":"9.45162","2018_gdp":17017401832.0,"2018_pop":2119275.0},{"Country Code":"GBR","country_name":"United Kingdom","region":"Europe & Central Asia","income_level":"High income","latitude":"51.5002","longitude":"-0.126236","2018_gdp":2830000000000.0,"2018_pop":66488991.0},{"Country Code":"GEO","country_name":"Georgia","region":"Europe & Central Asia","income_level":"Upper middle income","latitude":"41.71","longitude":"44.793","2018_gdp":16209818081.0,"2018_pop":3731000.0},{"Country Code":"GHA","country_name":"Ghana","region":"Sub-Saharan Africa ","income_level":"Lower middle income","latitude":"5.57045","longitude":"-0.20795","2018_gdp":65556464056.0,"2018_pop":29767108.0},{"Country Code":"GIB","country_name":"Gibraltar","region":"Europe & Central Asia","income_level":"High income","latitude":0,"longitude":0,"2018_gdp":0.0,"2018_pop":33718.0},{"Country Code":"GIN","country_name":"Guinea","region":"Sub-Saharan Africa ","income_level":"Low income","latitude":"9.51667","longitude":"-13.7","2018_gdp":10989790256.0,"2018_pop":12414318.0},{"Country Code":"GMB","country_name":"Gambia, The","region":"Sub-Saharan Africa ","income_level":"Low income","latitude":"13.4495","longitude":"-16.5885","2018_gdp":1624464137.0,"2018_pop":2280102.0},{"Country Code":"GNB","country_name":"Guinea-Bissau","region":"Sub-Saharan Africa ","income_level":"Low income","latitude":"11.8037","longitude":"-15.1804","2018_gdp":1458156026.0,"2018_pop":1874309.0},{"Country Code":"GNQ","country_name":"Equatorial Guinea","region":"Sub-Saharan Africa ","income_level":"Upper middle income","latitude":"3.7523","longitude":"8.7741","2018_gdp":13317453070.0,"2018_pop":1308974.0},{"Country Code":"GRC","country_name":"Greece","region":"Europe & Central Asia","income_level":"High income","latitude":"37.9792","longitude":"23.7166","2018_gdp":218000000000.0,"2018_pop":10727668.0},{"Country Code":"GRD","country_name":"Grenada","region":"Latin America & Caribbean ","income_level":"Upper middle income","latitude":"12.0653","longitude":"-61.7449","2018_gdp":1207454556.0,"2018_pop":111454.0},{"Country Code":"GRL","country_name":"Greenland","region":"Europe & Central Asia","income_level":"High income","latitude":"64.1836","longitude":"-51.7214","2018_gdp":0.0,"2018_pop":56025.0},{"Country Code":"GTM","country_name":"Guatemala","region":"Latin America & Caribbean ","income_level":"Upper middle income","latitude":"14.6248","longitude":"-90.5328","2018_gdp":78460447920.0,"2018_pop":17247807.0},{"Country Code":"GUM","country_name":"Guam","region":"East Asia & Pacific","income_level":"High income","latitude":"13.4443","longitude":"144.794","2018_gdp":0.0,"2018_pop":165768.0},{"Country Code":"GUY","country_name":"Guyana","region":"Latin America & Caribbean ","income_level":"Upper middle income","latitude":"6.80461","longitude":"-58.1548","2018_gdp":3610435299.0,"2018_pop":779004.0},{"Country Code":"HIC","country_name":"High income","region":"Aggregates","income_level":"Aggregates","latitude":0,"longitude":0,"2018_gdp":54100000000000.0,"2018_pop":1210312147.0},{"Country Code":"HKG","country_name":"Hong Kong SAR, China","region":"East Asia & Pacific","income_level":"High income","latitude":"22.3964","longitude":"114.109","2018_gdp":363000000000.0,"2018_pop":7451000.0},{"Country Code":"HND","country_name":"Honduras","region":"Latin America & Caribbean ","income_level":"Lower middle income","latitude":"15.1333","longitude":"-87.4667","2018_gdp":23803230473.0,"2018_pop":9587522.0},{"Country Code":"HPC","country_name":"Heavily indebted poor countries (HIPC)","region":"Aggregates","income_level":"Aggregates","latitude":0,"longitude":0,"2018_gdp":726000000000.0,"2018_pop":780234406.0},{"Country Code":"HRV","country_name":"Croatia","region":"Europe & Central Asia","income_level":"High income","latitude":"45.8069","longitude":"15.9614","2018_gdp":60805659436.0,"2018_pop":4089400.0},{"Country Code":"HTI","country_name":"Haiti","region":"Latin America & Caribbean ","income_level":"Low income","latitude":"18.5392","longitude":"-72.3288","2018_gdp":9658084644.0,"2018_pop":11123176.0},{"Country Code":"HUN","country_name":"Hungary","region":"Europe & Central Asia","income_level":"High income","latitude":"47.4984","longitude":"19.0408","2018_gdp":156000000000.0,"2018_pop":9768785.0},{"Country Code":"IBD","country_name":"IBRD only","region":"Aggregates","income_level":"Aggregates","latitude":0,"longitude":0,"2018_gdp":30500000000000.0,"2018_pop":4772284113.0},{"Country Code":"IBT","country_name":"IDA & IBRD total","region":"Aggregates","income_level":"Aggregates","latitude":0,"longitude":0,"2018_gdp":32700000000000.0,"2018_pop":6412522234.0},{"Country Code":"IDA","country_name":"IDA total","region":"Aggregates","income_level":"Aggregates","latitude":0,"longitude":0,"2018_gdp":2210000000000.0,"2018_pop":1640238121.0},{"Country Code":"IDB","country_name":"IDA blend","region":"Aggregates","income_level":"Aggregates","latitude":0,"longitude":0,"2018_gdp":991000000000.0,"2018_pop":555830605.0},{"Country Code":"IDN","country_name":"Indonesia","region":"East Asia & Pacific","income_level":"Lower middle income","latitude":"-6.19752","longitude":"106.83","2018_gdp":1040000000000.0,"2018_pop":267663435.0},{"Country Code":"IDX","country_name":"IDA only","region":"Aggregates","income_level":"Aggregates","latitude":0,"longitude":0,"2018_gdp":1220000000000.0,"2018_pop":1084407516.0},{"Country Code":"IMN","country_name":"Isle of Man","region":"Europe & Central Asia","income_level":"High income","latitude":"54.1509","longitude":"-4.47928","2018_gdp":0.0,"2018_pop":84077.0},{"Country Code":"IND","country_name":"India","region":"South Asia","income_level":"Lower middle income","latitude":"28.6353","longitude":"77.225","2018_gdp":2730000000000.0,"2018_pop":1352617328.0},{"Country Code":"INX","country_name":"Not classified","region":"Aggregates","income_level":"Aggregates","latitude":0,"longitude":0,"2018_gdp":0.0,"2018_pop":0.0},{"Country Code":"IRL","country_name":"Ireland","region":"Europe & Central Asia","income_level":"High income","latitude":"53.3441","longitude":"-6.26749","2018_gdp":376000000000.0,"2018_pop":4853506.0},{"Country Code":"IRN","country_name":"Iran, Islamic Rep.","region":"Middle East & North Africa","income_level":"Upper middle income","latitude":"35.6878","longitude":"51.4447","2018_gdp":0.0,"2018_pop":81800269.0},{"Country Code":"IRQ","country_name":"Iraq","region":"Middle East & North Africa","income_level":"Upper middle income","latitude":"33.3302","longitude":"44.394","2018_gdp":226000000000.0,"2018_pop":38433600.0},{"Country Code":"ISL","country_name":"Iceland","region":"Europe & Central Asia","income_level":"High income","latitude":"64.1353","longitude":"-21.8952","2018_gdp":25878475760.0,"2018_pop":353574.0},{"Country Code":"ISR","country_name":"Israel","region":"Middle East & North Africa","income_level":"High income","latitude":"31.7717","longitude":"35.2035","2018_gdp":370000000000.0,"2018_pop":8883800.0},{"Country Code":"ITA","country_name":"Italy","region":"Europe & Central Asia","income_level":"High income","latitude":"41.8955","longitude":"12.4823","2018_gdp":2070000000000.0,"2018_pop":60431283.0},{"Country Code":"JAM","country_name":"Jamaica","region":"Latin America & Caribbean ","income_level":"Upper middle income","latitude":"17.9927","longitude":"-76.792","2018_gdp":15717858487.0,"2018_pop":2934855.0},{"Country Code":"JOR","country_name":"Jordan","region":"Middle East & North Africa","income_level":"Upper middle income","latitude":"31.9497","longitude":"35.9263","2018_gdp":42290832158.0,"2018_pop":9956011.0},{"Country Code":"JPN","country_name":"Japan","region":"East Asia & Pacific","income_level":"High income","latitude":"35.67","longitude":"139.77","2018_gdp":4970000000000.0,"2018_pop":126529100.0},{"Country Code":"KAZ","country_name":"Kazakhstan","region":"Europe & Central Asia","income_level":"Upper middle income","latitude":"51.1879","longitude":"71.4382","2018_gdp":171000000000.0,"2018_pop":18276499.0},{"Country Code":"KEN","country_name":"Kenya","region":"Sub-Saharan Africa ","income_level":"Lower middle income","latitude":"-1.27975","longitude":"36.8126","2018_gdp":87908262520.0,"2018_pop":51393010.0},{"Country Code":"KGZ","country_name":"Kyrgyz Republic","region":"Europe & Central Asia","income_level":"Lower middle income","latitude":"42.8851","longitude":"74.6057","2018_gdp":8092836609.0,"2018_pop":6315800.0},{"Country Code":"KHM","country_name":"Cambodia","region":"East Asia & Pacific","income_level":"Lower middle income","latitude":"11.5556","longitude":"104.874","2018_gdp":24571753583.0,"2018_pop":16249798.0},{"Country Code":"KIR","country_name":"Kiribati","region":"East Asia & Pacific","income_level":"Lower middle income","latitude":"1.32905","longitude":"172.979","2018_gdp":188284518.8000000119,"2018_pop":115847.0},{"Country Code":"KNA","country_name":"St. Kitts and Nevis","region":"Latin America & Caribbean ","income_level":"High income","latitude":"17.3","longitude":"-62.7309","2018_gdp":1039875050.0,"2018_pop":52441.0},{"Country Code":"KOR","country_name":"Korea, Rep.","region":"East Asia & Pacific","income_level":"High income","latitude":"37.5323","longitude":"126.957","2018_gdp":1620000000000.0,"2018_pop":51635256.0},{"Country Code":"KWT","country_name":"Kuwait","region":"Middle East & North Africa","income_level":"High income","latitude":"29.3721","longitude":"47.9824","2018_gdp":142000000000.0,"2018_pop":4137309.0},{"Country Code":"LAC","country_name":"Latin America & Caribbean (excluding high income)","region":"Aggregates","income_level":"Aggregates","latitude":0,"longitude":0,"2018_gdp":5190000000000.0,"2018_pop":609013934.0},{"Country Code":"LAO","country_name":"Lao PDR","region":"East Asia & Pacific","income_level":"Lower middle income","latitude":"18.5826","longitude":"102.177","2018_gdp":18130724396.0,"2018_pop":7061507.0},{"Country Code":"LBN","country_name":"Lebanon","region":"Middle East & North Africa","income_level":"Upper middle income","latitude":"33.8872","longitude":"35.5134","2018_gdp":56639155556.0,"2018_pop":6848925.0},{"Country Code":"LBR","country_name":"Liberia","region":"Sub-Saharan Africa ","income_level":"Low income","latitude":"6.30039","longitude":"-10.7957","2018_gdp":3249000000.0,"2018_pop":4818977.0},{"Country Code":"LBY","country_name":"Libya","region":"Middle East & North Africa","income_level":"Upper middle income","latitude":"32.8578","longitude":"13.1072","2018_gdp":48319620013.0,"2018_pop":6678567.0},{"Country Code":"LCA","country_name":"St. Lucia","region":"Latin America & Caribbean ","income_level":"Upper middle income","latitude":"14","longitude":"-60.9832","2018_gdp":1876189778.0,"2018_pop":181889.0},{"Country Code":"LCN","country_name":"Latin America & Caribbean ","region":"Aggregates","income_level":"Aggregates","latitude":0,"longitude":0,"2018_gdp":5790000000000.0,"2018_pop":641357515.0},{"Country Code":"LDC","country_name":"Least developed countries: UN classification","region":"Aggregates","income_level":"Aggregates","latitude":0,"longitude":0,"2018_gdp":1050000000000.0,"2018_pop":1009662578.0},{"Country Code":"LIC","country_name":"Low income","region":"Aggregates","income_level":"Aggregates","latitude":0,"longitude":0,"2018_gdp":572000000000.0,"2018_pop":705417321.0},{"Country Code":"LIE","country_name":"Liechtenstein","region":"Europe & Central Asia","income_level":"High income","latitude":"47.1411","longitude":"9.52148","2018_gdp":0.0,"2018_pop":37910.0},{"Country Code":"LKA","country_name":"Sri Lanka","region":"South Asia","income_level":"Upper middle income","latitude":"6.92148","longitude":"79.8528","2018_gdp":88900770858.0,"2018_pop":21670000.0},{"Country Code":"LMC","country_name":"Lower middle income","region":"Aggregates","income_level":"Aggregates","latitude":0,"longitude":0,"2018_gdp":6710000000000.0,"2018_pop":3022905169.0},{"Country Code":"LMY","country_name":"Low & middle income","region":"Aggregates","income_level":"Aggregates","latitude":0,"longitude":0,"2018_gdp":31700000000000.0,"2018_pop":6383958209.0},{"Country Code":"LSO","country_name":"Lesotho","region":"Sub-Saharan Africa ","income_level":"Lower middle income","latitude":"-29.5208","longitude":"27.7167","2018_gdp":2791762880.0,"2018_pop":2108132.0},{"Country Code":"LTE","country_name":"Late-demographic dividend","region":"Aggregates","income_level":"Aggregates","latitude":0,"longitude":0,"2018_gdp":22200000000000.0,"2018_pop":2288665963.0},{"Country Code":"LTU","country_name":"Lithuania","region":"Europe & Central Asia","income_level":"High income","latitude":"54.6896","longitude":"25.2799","2018_gdp":53251369047.0,"2018_pop":2789533.0},{"Country Code":"LUX","country_name":"Luxembourg","region":"Europe & Central Asia","income_level":"High income","latitude":"49.61","longitude":"6.1296","2018_gdp":69487922619.0,"2018_pop":607728.0},{"Country Code":"LVA","country_name":"Latvia","region":"Europe & Central Asia","income_level":"High income","latitude":"56.9465","longitude":"24.1048","2018_gdp":34849078086.0,"2018_pop":1926542.0},{"Country Code":"MAC","country_name":"Macao SAR, China","region":"East Asia & Pacific","income_level":"High income","latitude":"22.1667","longitude":"113.55","2018_gdp":54545184268.0,"2018_pop":631636.0},{"Country Code":"MAF","country_name":"St. Martin (French part)","region":"Latin America & Caribbean ","income_level":"High income","latitude":0,"longitude":0,"2018_gdp":0.0,"2018_pop":37264.0},{"Country Code":"MAR","country_name":"Morocco","region":"Middle East & North Africa","income_level":"Lower middle income","latitude":"33.9905","longitude":"-6.8704","2018_gdp":118000000000.0,"2018_pop":36029138.0},{"Country Code":"MCO","country_name":"Monaco","region":"Europe & Central Asia","income_level":"High income","latitude":"43.7325","longitude":"7.41891","2018_gdp":0.0,"2018_pop":38682.0},{"Country Code":"MDA","country_name":"Moldova","region":"Europe & Central Asia","income_level":"Lower middle income","latitude":"47.0167","longitude":"28.8497","2018_gdp":11309082555.0,"2018_pop":3545883.0},{"Country Code":"MDG","country_name":"Madagascar","region":"Sub-Saharan Africa ","income_level":"Low income","latitude":"-20.4667","longitude":"45.7167","2018_gdp":12100459087.0,"2018_pop":26262368.0},{"Country Code":"MDV","country_name":"Maldives","region":"South Asia","income_level":"Upper middle income","latitude":"4.1742","longitude":"73.5109","2018_gdp":5272288443.0,"2018_pop":515696.0},{"Country Code":"MEA","country_name":"Middle East & North Africa","region":"Aggregates","income_level":"Aggregates","latitude":0,"longitude":0,"2018_gdp":3620000000000.0,"2018_pop":448912859.0},{"Country Code":"MEX","country_name":"Mexico","region":"Latin America & Caribbean ","income_level":"Upper middle income","latitude":"19.427","longitude":"-99.1276","2018_gdp":1220000000000.0,"2018_pop":126190788.0},{"Country Code":"MHL","country_name":"Marshall Islands","region":"East Asia & Pacific","income_level":"Upper middle income","latitude":"7.11046","longitude":"171.135","2018_gdp":211523642.400000006,"2018_pop":58413.0},{"Country Code":"MIC","country_name":"Middle income","region":"Aggregates","income_level":"Aggregates","latitude":0,"longitude":0,"2018_gdp":31100000000000.0,"2018_pop":5678540888.0},{"Country Code":"MKD","country_name":"North Macedonia","region":"Europe & Central Asia","income_level":"Upper middle income","latitude":"42.0024","longitude":"21.4361","2018_gdp":12672131053.0,"2018_pop":2082958.0},{"Country Code":"MLI","country_name":"Mali","region":"Sub-Saharan Africa ","income_level":"Low income","latitude":"13.5667","longitude":"-7.50034","2018_gdp":17196688920.0,"2018_pop":19077690.0},{"Country Code":"MLT","country_name":"Malta","region":"Middle East & North Africa","income_level":"High income","latitude":"35.9042","longitude":"14.5189","2018_gdp":14542039605.0,"2018_pop":483530.0},{"Country Code":"MMR","country_name":"Myanmar","region":"East Asia & Pacific","income_level":"Lower middle income","latitude":"21.914","longitude":"95.9562","2018_gdp":71214803378.0,"2018_pop":53708395.0},{"Country Code":"MNA","country_name":"Middle East & North Africa (excluding high income)","region":"Aggregates","income_level":"Aggregates","latitude":0,"longitude":0,"2018_gdp":0.0,"2018_pop":382896715.0},{"Country Code":"MNE","country_name":"Montenegro","region":"Europe & Central Asia","income_level":"Upper middle income","latitude":"42.4602","longitude":"19.2595","2018_gdp":5452173041.0,"2018_pop":622345.0},{"Country Code":"MNG","country_name":"Mongolia","region":"East Asia & Pacific","income_level":"Lower middle income","latitude":"47.9129","longitude":"106.937","2018_gdp":13009574621.0,"2018_pop":3170208.0},{"Country Code":"MNP","country_name":"Northern Mariana Islands","region":"East Asia & Pacific","income_level":"High income","latitude":"15.1935","longitude":"145.765","2018_gdp":0.0,"2018_pop":56882.0},{"Country Code":"MOZ","country_name":"Mozambique","region":"Sub-Saharan Africa ","income_level":"Low income","latitude":"-25.9664","longitude":"32.5713","2018_gdp":14457964381.0,"2018_pop":29495962.0},{"Country Code":"MRT","country_name":"Mauritania","region":"Sub-Saharan Africa ","income_level":"Lower middle income","latitude":"18.2367","longitude":"-15.9824","2018_gdp":5365868725.0,"2018_pop":4403319.0},{"Country Code":"MUS","country_name":"Mauritius","region":"Sub-Saharan Africa ","income_level":"Upper middle income","latitude":"-20.1605","longitude":"57.4977","2018_gdp":14220348673.0,"2018_pop":1265303.0},{"Country Code":"MWI","country_name":"Malawi","region":"Sub-Saharan Africa ","income_level":"Low income","latitude":"-13.9899","longitude":"33.7703","2018_gdp":7064971176.0,"2018_pop":18143315.0},{"Country Code":"MYS","country_name":"Malaysia","region":"East Asia & Pacific","income_level":"Upper middle income","latitude":"3.12433","longitude":"101.684","2018_gdp":354000000000.0,"2018_pop":31528585.0},{"Country Code":"NAC","country_name":"North America","region":"Aggregates","income_level":"Aggregates","latitude":0,"longitude":0,"2018_gdp":22200000000000.0,"2018_pop":364290258.0},{"Country Code":"NAM","country_name":"Namibia","region":"Sub-Saharan Africa ","income_level":"Upper middle income","latitude":"-22.5648","longitude":"17.0931","2018_gdp":14521711630.0,"2018_pop":2448255.0},{"Country Code":"NCL","country_name":"New Caledonia","region":"East Asia & Pacific","income_level":"High income","latitude":"-22.2677","longitude":"166.464","2018_gdp":0.0,"2018_pop":284060.0},{"Country Code":"NER","country_name":"Niger","region":"Sub-Saharan Africa ","income_level":"Low income","latitude":"13.514","longitude":"2.1073","2018_gdp":9239513530.0,"2018_pop":22442948.0},{"Country Code":"NGA","country_name":"Nigeria","region":"Sub-Saharan Africa ","income_level":"Lower middle income","latitude":"9.05804","longitude":"7.48906","2018_gdp":397000000000.0,"2018_pop":195874740.0},{"Country Code":"NIC","country_name":"Nicaragua","region":"Latin America & Caribbean ","income_level":"Lower middle income","latitude":"12.1475","longitude":"-86.2734","2018_gdp":13117859222.0,"2018_pop":6465513.0},{"Country Code":"NLD","country_name":"Netherlands","region":"Europe & Central Asia","income_level":"High income","latitude":"52.3738","longitude":"4.89095","2018_gdp":913000000000.0,"2018_pop":17231017.0},{"Country Code":"NOR","country_name":"Norway","region":"Europe & Central Asia","income_level":"High income","latitude":"59.9138","longitude":"10.7387","2018_gdp":435000000000.0,"2018_pop":5314336.0},{"Country Code":"NPL","country_name":"Nepal","region":"South Asia","income_level":"Low income","latitude":"27.6939","longitude":"85.3157","2018_gdp":28812491892.0,"2018_pop":28087871.0},{"Country Code":"NRU","country_name":"Nauru","region":"East Asia & Pacific","income_level":"Upper middle income","latitude":"-0.5477","longitude":"166.920867","2018_gdp":114718022.799999997,"2018_pop":12704.0},{"Country Code":"NZL","country_name":"New Zealand","region":"East Asia & Pacific","income_level":"High income","latitude":"-41.2865","longitude":"174.776","2018_gdp":205000000000.0,"2018_pop":4885500.0},{"Country Code":"OED","country_name":"OECD members","region":"Aggregates","income_level":"Aggregates","latitude":0,"longitude":0,"2018_gdp":52600000000000.0,"2018_pop":1303529456.0},{"Country Code":"OMN","country_name":"Oman","region":"Middle East & North Africa","income_level":"High income","latitude":"23.6105","longitude":"58.5874","2018_gdp":79294928479.0,"2018_pop":4829483.0},{"Country Code":"OSS","country_name":"Other small states","region":"Aggregates","income_level":"Aggregates","latitude":0,"longitude":0,"2018_gdp":452000000000.0,"2018_pop":30758989.0},{"Country Code":"PAK","country_name":"Pakistan","region":"South Asia","income_level":"Lower middle income","latitude":"30.5167","longitude":"72.8","2018_gdp":313000000000.0,"2018_pop":212215030.0},{"Country Code":"PAN","country_name":"Panama","region":"Latin America & Caribbean ","income_level":"High income","latitude":"8.99427","longitude":"-79.5188","2018_gdp":65055100000.0,"2018_pop":4176873.0},{"Country Code":"PER","country_name":"Peru","region":"Latin America & Caribbean ","income_level":"Upper middle income","latitude":"-12.0931","longitude":"-77.0465","2018_gdp":222000000000.0,"2018_pop":31989256.0},{"Country Code":"PHL","country_name":"Philippines","region":"East Asia & Pacific","income_level":"Lower middle income","latitude":"14.5515","longitude":"121.035","2018_gdp":331000000000.0,"2018_pop":106651922.0},{"Country Code":"PLW","country_name":"Palau","region":"East Asia & Pacific","income_level":"High income","latitude":"7.34194","longitude":"134.479","2018_gdp":310111145.0,"2018_pop":17907.0},{"Country Code":"PNG","country_name":"Papua New Guinea","region":"East Asia & Pacific","income_level":"Lower middle income","latitude":"-9.47357","longitude":"147.194","2018_gdp":23431596214.0,"2018_pop":8606316.0},{"Country Code":"POL","country_name":"Poland","region":"Europe & Central Asia","income_level":"High income","latitude":"52.26","longitude":"21.02","2018_gdp":586000000000.0,"2018_pop":37978548.0},{"Country Code":"PRE","country_name":"Pre-demographic dividend","region":"Aggregates","income_level":"Aggregates","latitude":0,"longitude":0,"2018_gdp":1310000000000.0,"2018_pop":919485393.0},{"Country Code":"PRI","country_name":"Puerto Rico","region":"Latin America & Caribbean ","income_level":"High income","latitude":"18.23","longitude":"-66","2018_gdp":101000000000.0,"2018_pop":3195153.0},{"Country Code":"PRK","country_name":"Korea, Dem. People\u2019s Rep.","region":"East Asia & Pacific","income_level":"Low income","latitude":"39.0319","longitude":"125.754","2018_gdp":0.0,"2018_pop":25549819.0},{"Country Code":"PRT","country_name":"Portugal","region":"Europe & Central Asia","income_level":"High income","latitude":"38.7072","longitude":"-9.13552","2018_gdp":238000000000.0,"2018_pop":10281762.0},{"Country Code":"PRY","country_name":"Paraguay","region":"Latin America & Caribbean ","income_level":"Upper middle income","latitude":"-25.3005","longitude":"-57.6362","2018_gdp":40842341774.0,"2018_pop":6956071.0},{"Country Code":"PSE","country_name":"West Bank and Gaza","region":"Middle East & North Africa","income_level":"Lower middle income","latitude":0,"longitude":0,"2018_gdp":14615900000.0,"2018_pop":4569087.0},{"Country Code":"PSS","country_name":"Pacific island small states","region":"Aggregates","income_level":"Aggregates","latitude":0,"longitude":0,"2018_gdp":10302802236.0,"2018_pop":2457367.0},{"Country Code":"PST","country_name":"Post-demographic dividend","region":"Aggregates","income_level":"Aggregates","latitude":0,"longitude":0,"2018_gdp":50000000000000.0,"2018_pop":1109997273.0},{"Country Code":"PYF","country_name":"French Polynesia","region":"East Asia & Pacific","income_level":"High income","latitude":"-17.535","longitude":"-149.57","2018_gdp":0.0,"2018_pop":277679.0},{"Country Code":"QAT","country_name":"Qatar","region":"Middle East & North Africa","income_level":"High income","latitude":"25.2948","longitude":"51.5082","2018_gdp":192000000000.0,"2018_pop":2781677.0},{"Country Code":"ROU","country_name":"Romania","region":"Europe & Central Asia","income_level":"Upper middle income","latitude":"44.4479","longitude":"26.0979","2018_gdp":240000000000.0,"2018_pop":19473936.0},{"Country Code":"RUS","country_name":"Russian Federation","region":"Europe & Central Asia","income_level":"Upper middle income","latitude":"55.7558","longitude":"37.6176","2018_gdp":1660000000000.0,"2018_pop":144478050.0},{"Country Code":"RWA","country_name":"Rwanda","region":"Sub-Saharan Africa ","income_level":"Low income","latitude":"-1.95325","longitude":"30.0587","2018_gdp":9509003197.0,"2018_pop":12301939.0},{"Country Code":"SAS","country_name":"South Asia","region":"Aggregates","income_level":"Aggregates","latitude":0,"longitude":0,"2018_gdp":3460000000000.0,"2018_pop":1814388744.0},{"Country Code":"SAU","country_name":"Saudi Arabia","region":"Middle East & North Africa","income_level":"High income","latitude":"24.6748","longitude":"46.6977","2018_gdp":782000000000.0,"2018_pop":33699947.0},{"Country Code":"SDN","country_name":"Sudan","region":"Sub-Saharan Africa ","income_level":"Lower middle income","latitude":"15.5932","longitude":"32.5363","2018_gdp":40851536134.0,"2018_pop":41801533.0},{"Country Code":"SEN","country_name":"Senegal","region":"Sub-Saharan Africa ","income_level":"Lower middle income","latitude":"14.7247","longitude":"-17.4734","2018_gdp":24129599552.0,"2018_pop":15854360.0},{"Country Code":"SGP","country_name":"Singapore","region":"East Asia & Pacific","income_level":"High income","latitude":"1.28941","longitude":"103.85","2018_gdp":364000000000.0,"2018_pop":5638676.0},{"Country Code":"SLB","country_name":"Solomon Islands","region":"East Asia & Pacific","income_level":"Lower middle income","latitude":"-9.42676","longitude":"159.949","2018_gdp":1411904531.0,"2018_pop":652858.0},{"Country Code":"SLE","country_name":"Sierra Leone","region":"Sub-Saharan Africa ","income_level":"Low income","latitude":"8.4821","longitude":"-13.2134","2018_gdp":3999945202.0,"2018_pop":7650154.0},{"Country Code":"SLV","country_name":"El Salvador","region":"Latin America & Caribbean ","income_level":"Lower middle income","latitude":"13.7034","longitude":"-89.2073","2018_gdp":26056950000.0,"2018_pop":6420744.0},{"Country Code":"SMR","country_name":"San Marino","region":"Europe & Central Asia","income_level":"High income","latitude":"43.9322","longitude":"12.4486","2018_gdp":0.0,"2018_pop":33785.0},{"Country Code":"SOM","country_name":"Somalia","region":"Sub-Saharan Africa ","income_level":"Low income","latitude":"2.07515","longitude":"45.3254","2018_gdp":7484000000.0,"2018_pop":15008154.0},{"Country Code":"SRB","country_name":"Serbia","region":"Europe & Central Asia","income_level":"Upper middle income","latitude":"44.8024","longitude":"20.4656","2018_gdp":50508366850.0,"2018_pop":6982084.0},{"Country Code":"SSA","country_name":"Sub-Saharan Africa (excluding high income)","region":"Aggregates","income_level":"Aggregates","latitude":0,"longitude":0,"2018_gdp":1700000000000.0,"2018_pop":1078209758.0},{"Country Code":"SSD","country_name":"South Sudan","region":"Sub-Saharan Africa ","income_level":"Low income","latitude":"4.85","longitude":"31.6","2018_gdp":0.0,"2018_pop":10975920.0},{"Country Code":"SSF","country_name":"Sub-Saharan Africa ","region":"Aggregates","income_level":"Aggregates","latitude":0,"longitude":0,"2018_gdp":1700000000000.0,"2018_pop":1078306520.0},{"Country Code":"SST","country_name":"Small states","region":"Aggregates","income_level":"Aggregates","latitude":0,"longitude":0,"2018_gdp":536000000000.0,"2018_pop":40575321.0},{"Country Code":"STP","country_name":"Sao Tome and Principe","region":"Sub-Saharan Africa ","income_level":"Lower middle income","latitude":"0.20618","longitude":"6.6071","2018_gdp":422296762.3000000119,"2018_pop":211028.0},{"Country Code":"SUR","country_name":"Suriname","region":"Latin America & Caribbean ","income_level":"Upper middle income","latitude":"5.8232","longitude":"-55.1679","2018_gdp":3427269682.0,"2018_pop":575991.0},{"Country Code":"SVK","country_name":"Slovak Republic","region":"Europe & Central Asia","income_level":"High income","latitude":"48.1484","longitude":"17.1073","2018_gdp":106000000000.0,"2018_pop":5447011.0},{"Country Code":"SVN","country_name":"Slovenia","region":"Europe & Central Asia","income_level":"High income","latitude":"46.0546","longitude":"14.5044","2018_gdp":54235484383.0,"2018_pop":2067372.0},{"Country Code":"SWE","country_name":"Sweden","region":"Europe & Central Asia","income_level":"High income","latitude":"59.3327","longitude":"18.0645","2018_gdp":551000000000.0,"2018_pop":10183175.0},{"Country Code":"SWZ","country_name":"Eswatini","region":"Sub-Saharan Africa ","income_level":"Lower middle income","latitude":"-26.5225","longitude":"31.4659","2018_gdp":4703787507.0,"2018_pop":1136191.0},{"Country Code":"SXM","country_name":"Sint Maarten (Dutch part)","region":"Latin America & Caribbean ","income_level":"High income","latitude":0,"longitude":0,"2018_gdp":0.0,"2018_pop":40654.0},{"Country Code":"SYC","country_name":"Seychelles","region":"Sub-Saharan Africa ","income_level":"High income","latitude":"-4.6309","longitude":"55.4466","2018_gdp":1590180446.0,"2018_pop":96762.0},{"Country Code":"SYR","country_name":"Syrian Arab Republic","region":"Middle East & North Africa","income_level":"Low income","latitude":"33.5146","longitude":"36.3119","2018_gdp":0.0,"2018_pop":16906283.0},{"Country Code":"TCA","country_name":"Turks and Caicos Islands","region":"Latin America & Caribbean ","income_level":"High income","latitude":"21.4602778","longitude":"-71.141389","2018_gdp":1022312010.0,"2018_pop":37665.0},{"Country Code":"TCD","country_name":"Chad","region":"Sub-Saharan Africa ","income_level":"Low income","latitude":"12.1048","longitude":"15.0445","2018_gdp":11302544205.0,"2018_pop":15477751.0},{"Country Code":"TEA","country_name":"East Asia & Pacific (IDA & IBRD countries)","region":"Aggregates","income_level":"Aggregates","latitude":0,"longitude":0,"2018_gdp":16200000000000.0,"2018_pop":2056064424.0},{"Country Code":"TEC","country_name":"Europe & Central Asia (IDA & IBRD countries)","region":"Aggregates","income_level":"Aggregates","latitude":0,"longitude":0,"2018_gdp":4040000000000.0,"2018_pop":459865205.0},{"Country Code":"TGO","country_name":"Togo","region":"Sub-Saharan Africa ","income_level":"Low income","latitude":"6.1228","longitude":"1.2255","2018_gdp":5300214337.0,"2018_pop":7889094.0},{"Country Code":"THA","country_name":"Thailand","region":"East Asia & Pacific","income_level":"Upper middle income","latitude":"13.7308","longitude":"100.521","2018_gdp":505000000000.0,"2018_pop":69428524.0},{"Country Code":"TJK","country_name":"Tajikistan","region":"Europe & Central Asia","income_level":"Low income","latitude":"38.5878","longitude":"68.7864","2018_gdp":7522947810.0,"2018_pop":9100837.0},{"Country Code":"TKM","country_name":"Turkmenistan","region":"Europe & Central Asia","income_level":"Upper middle income","latitude":"37.9509","longitude":"58.3794","2018_gdp":40761142857.0,"2018_pop":5850908.0},{"Country Code":"TLA","country_name":"Latin America & the Caribbean (IDA & IBRD countries)","region":"Aggregates","income_level":"Aggregates","latitude":0,"longitude":0,"2018_gdp":5560000000000.0,"2018_pop":625569713.0},{"Country Code":"TLS","country_name":"Timor-Leste","region":"East Asia & Pacific","income_level":"Lower middle income","latitude":"-8.56667","longitude":"125.567","2018_gdp":2581000000.0,"2018_pop":1267972.0},{"Country Code":"TMN","country_name":"Middle East & North Africa (IDA & IBRD countries)","region":"Aggregates","income_level":"Aggregates","latitude":0,"longitude":0,"2018_gdp":0.0,"2018_pop":378327628.0},{"Country Code":"TON","country_name":"Tonga","region":"East Asia & Pacific","income_level":"Upper middle income","latitude":"-21.136","longitude":"-175.216","2018_gdp":450353313.8999999762,"2018_pop":103197.0},{"Country Code":"TSA","country_name":"South Asia (IDA & IBRD)","region":"Aggregates","income_level":"Aggregates","latitude":0,"longitude":0,"2018_gdp":3460000000000.0,"2018_pop":1814388744.0},{"Country Code":"TSS","country_name":"Sub-Saharan Africa (IDA & IBRD countries)","region":"Aggregates","income_level":"Aggregates","latitude":0,"longitude":0,"2018_gdp":1700000000000.0,"2018_pop":1078306520.0},{"Country Code":"TTO","country_name":"Trinidad and Tobago","region":"Latin America & Caribbean ","income_level":"High income","latitude":"10.6596","longitude":"-61.4789","2018_gdp":23410353435.0,"2018_pop":1389858.0},{"Country Code":"TUN","country_name":"Tunisia","region":"Middle East & North Africa","income_level":"Lower middle income","latitude":"36.7899","longitude":"10.21","2018_gdp":39860715814.0,"2018_pop":11565204.0},{"Country Code":"TUR","country_name":"Turkey","region":"Europe & Central Asia","income_level":"Upper middle income","latitude":"39.7153","longitude":"32.3606","2018_gdp":767000000000.0,"2018_pop":82319724.0},{"Country Code":"TUV","country_name":"Tuvalu","region":"East Asia & Pacific","income_level":"Upper middle income","latitude":"-8.6314877","longitude":"179.089567","2018_gdp":42587778.4699999988,"2018_pop":11508.0},{"Country Code":"TZA","country_name":"Tanzania","region":"Sub-Saharan Africa ","income_level":"Low income","latitude":"-6.17486","longitude":"35.7382","2018_gdp":57437073927.0,"2018_pop":56318348.0},{"Country Code":"UGA","country_name":"Uganda","region":"Sub-Saharan Africa ","income_level":"Low income","latitude":"0.314269","longitude":"32.5729","2018_gdp":27476945526.0,"2018_pop":42723139.0},{"Country Code":"UKR","country_name":"Ukraine","region":"Europe & Central Asia","income_level":"Lower middle income","latitude":"50.4536","longitude":"30.5038","2018_gdp":131000000000.0,"2018_pop":44622516.0},{"Country Code":"UMC","country_name":"Upper middle income","region":"Aggregates","income_level":"Aggregates","latitude":0,"longitude":0,"2018_gdp":24400000000000.0,"2018_pop":2655635719.0},{"Country Code":"URY","country_name":"Uruguay","region":"Latin America & Caribbean ","income_level":"High income","latitude":"-34.8941","longitude":"-56.0675","2018_gdp":59596885024.0,"2018_pop":3449299.0},{"Country Code":"USA","country_name":"United States","region":"North America","income_level":"High income","latitude":"38.8895","longitude":"-77.032","2018_gdp":20500000000000.0,"2018_pop":327167434.0},{"Country Code":"UZB","country_name":"Uzbekistan","region":"Europe & Central Asia","income_level":"Lower middle income","latitude":"41.3052","longitude":"69.269","2018_gdp":50499920318.0,"2018_pop":32955400.0},{"Country Code":"VCT","country_name":"St. Vincent and the Grenadines","region":"Latin America & Caribbean ","income_level":"Upper middle income","latitude":"13.2035","longitude":"-61.2653","2018_gdp":813093984.1000000238,"2018_pop":110210.0},{"Country Code":"VEN","country_name":"Venezuela, RB","region":"Latin America & Caribbean ","income_level":"Upper middle income","latitude":"9.08165","longitude":"-69.8371","2018_gdp":0.0,"2018_pop":28870195.0},{"Country Code":"VGB","country_name":"British Virgin Islands","region":"Latin America & Caribbean ","income_level":"High income","latitude":"18.431389","longitude":"-64.623056","2018_gdp":0.0,"2018_pop":29802.0},{"Country Code":"VIR","country_name":"Virgin Islands (U.S.)","region":"Latin America & Caribbean ","income_level":"High income","latitude":"18.3358","longitude":"-64.8963","2018_gdp":0.0,"2018_pop":106977.0},{"Country Code":"VNM","country_name":"Vietnam","region":"East Asia & Pacific","income_level":"Lower middle income","latitude":"21.0069","longitude":"105.825","2018_gdp":245000000000.0,"2018_pop":95540395.0},{"Country Code":"VUT","country_name":"Vanuatu","region":"East Asia & Pacific","income_level":"Lower middle income","latitude":"-17.7404","longitude":"168.321","2018_gdp":887817896.2999999523,"2018_pop":292680.0},{"Country Code":"WLD","country_name":"World","region":"Aggregates","income_level":"Aggregates","latitude":0,"longitude":0,"2018_gdp":85800000000000.0,"2018_pop":7594270356.0},{"Country Code":"WSM","country_name":"Samoa","region":"East Asia & Pacific","income_level":"Upper middle income","latitude":"-13.8314","longitude":"-171.752","2018_gdp":861494700.7000000477,"2018_pop":196130.0},{"Country Code":"XKX","country_name":"Kosovo","region":"Europe & Central Asia","income_level":"Upper middle income","latitude":"42.565","longitude":"20.926","2018_gdp":7900268736.0,"2018_pop":1845300.0},{"Country Code":"YEM","country_name":"Yemen, Rep.","region":"Middle East & North Africa","income_level":"Low income","latitude":"15.352","longitude":"44.2075","2018_gdp":26914402224.0,"2018_pop":28498687.0},{"Country Code":"ZAF","country_name":"South Africa","region":"Sub-Saharan Africa ","income_level":"Upper middle income","latitude":"-25.746","longitude":"28.1871","2018_gdp":366000000000.0,"2018_pop":57779622.0},{"Country Code":"ZMB","country_name":"Zambia","region":"Sub-Saharan Africa ","income_level":"Lower middle income","latitude":"-15.3982","longitude":"28.2937","2018_gdp":26720073436.0,"2018_pop":17351822.0},{"Country Code":"ZWE","country_name":"Zimbabwe","region":"Sub-Saharan Africa ","income_level":"Lower middle income","latitude":"-17.8312","longitude":"31.0672","2018_gdp":31000519447.0,"2018_pop":14439018.0}]